[
  { "id": 1, "district": "Achham", "latitude": 29.17, "longitude": 81.291 },
  { "id": 2, "district": "Arghakhanchi", "latitude": 27.95, "longitude": 83.15 },
  { "id": 3, "district": "Baglung", "latitude": 28.2725, "longitude": 83.5896 },
  { "id": 4, "district": "Baitadi", "latitude": 29.538, "longitude": 80.519 },
  { "id": 5, "district": "Bajhang", "latitude": 29.694, "longitude": 81.25 },
  { "id": 6, "district": "Bajura", "latitude": 29.4284, "longitude": 81.2552 },
  { "id": 7, "district": "Banke", "latitude": 28.147, "longitude": 81.684 },
  { "id": 8, "district": "Bara", "latitude": 27.07, "longitude": 85.04 },
  { "id": 9, "district": "Bardiya", "latitude": 28.35, "longitude": 81.23 },
  { "id": 10, "district": "Bhaktapur", "latitude": 27.671, "longitude": 85.4298 },
  { "id": 11, "district": "Bhojpur", "latitude": 27.172, "longitude": 87.05 },
  { "id": 12, "district": "Chitwan", "latitude": 27.5291, "longitude": 84.3542 },
  { "id": 13, "district": "Dadeldhura", "latitude": 29.298, "longitude": 80.586 },
  { "id": 14, "district": "Dailekh", "latitude": 28.883, "longitude": 81.71 },
  { "id": 15, "district": "Dang", "latitude": 28.1056, "longitude": 82.292 },
  { "id": 16, "district": "Darchula", "latitude": 29.85, "longitude": 80.55 },
  { "id": 17, "district": "Dhading", "latitude": 27.8667, "longitude": 84.9167 },
  { "id": 18, "district": "Dhankuta", "latitude": 27.023, "longitude": 87.3656 },
  { "id": 19, "district": "Dhanusha", "latitude": 26.8096, "longitude": 85.9376 },
  { "id": 20, "district": "Dolakha", "latitude": 27.716, "longitude": 86.1752 },
  { "id": 21, "district": "Dolpa", "latitude": 29.18, "longitude": 82.9826 },
  { "id": 22, "district": "Doti", "latitude": 29.2606, "longitude": 80.9634 },
  { "id": 23, "district": "Eastern Rukum", "latitude": 28.705, "longitude": 82.4691 },
  { "id": 24, "district": "Gorkha", "latitude": 28.3, "longitude": 84.6333 },
  { "id": 25, "district": "Gulmi", "latitude": 28.1167, "longitude": 83.25 },
  { "id": 26, "district": "Humla", "latitude": 30.021, "longitude": 81.83 },
  { "id": 27, "district": "Ilam", "latitude": 26.911, "longitude": 87.925 },
  { "id": 28, "district": "Jajarkot", "latitude": 28.85, "longitude": 82.25 },
  { "id": 29, "district": "Jhapa", "latitude": 26.5455, "longitude": 88.0774 },
  { "id": 30, "district": "Jumla", "latitude": 29.274, "longitude": 82.1836 },
  { "id": 31, "district": "Kailali", "latitude": 28.5167, "longitude": 80.75 },
  { "id": 32, "district": "Kalikot", "latitude": 29.138, "longitude": 81.608 },
  { "id": 33, "district": "Kanchanpur", "latitude": 28.95, "longitude": 80.1833 },
  { "id": 34, "district": "Kapilvastu", "latitude": 27.5333, "longitude": 83.05 },
  { "id": 35, "district": "Kaski", "latitude": 28.2, "longitude": 84.0167 },
  { "id": 36, "district": "Kathmandu", "latitude": 27.7172, "longitude": 85.324 },
  { "id": 37, "district": "Kavrepalanchok", "latitude": 27.6167, "longitude": 85.55 },
  { "id": 38, "district": "Khotang", "latitude": 27.1, "longitude": 86.7833 },
  { "id": 39, "district": "Lalitpur", "latitude": 27.667, "longitude": 85.322 },
  { "id": 40, "district": "Lamjung", "latitude": 28.2833, "longitude": 84.45 },
  { "id": 41, "district": "Mahottari", "latitude": 26.6667, "longitude": 85.8167 },
  { "id": 42, "district": "Makwanpur", "latitude": 27.4, "longitude": 85.2 },
  { "id": 43, "district": "Manang", "latitude": 28.675, "longitude": 84.07 },
  { "id": 44, "district": "Morang", "latitude": 26.4769, "longitude": 87.342 },
  { "id": 45, "district": "Mugu", "latitude": 29.6295, "longitude": 82.621 },
  { "id": 46, "district": "Mustang", "latitude": 28.9985, "longitude": 83.7709 },
  { "id": 47, "district": "Myagdi", "latitude": 28.3315, "longitude": 83.5696 },
  { "id": 48, "district": "Nawalpur", "latitude": 27.692, "longitude": 84.2416 },
  { "id": 49, "district": "Nuwakot", "latitude": 27.9263, "longitude": 85.2876 },
  { "id": 50, "district": "Okhaldhunga", "latitude": 27.329, "longitude": 86.5012 },
  { "id": 51, "district": "Palpa", "latitude": 27.9, "longitude": 83.55 },
  { "id": 52, "district": "Panchthar", "latitude": 27.1167, "longitude": 87.7667 },
  { "id": 53, "district": "Parasi", "latitude": 27.55, "longitude": 83.6167 },
  { "id": 54, "district": "Parbat", "latitude": 28.23, "longitude": 83.71 },
  { "id": 55, "district": "Parsa", "latitude": 27.0, "longitude": 84.8833 },
  { "id": 56, "district": "Pyuthan", "latitude": 28.0833, "longitude": 82.8833 },
  { "id": 57, "district": "Ramechhap", "latitude": 27.339, "longitude": 86.1174 },
  { "id": 58, "district": "Rasuwa", "latitude": 28.1667, "longitude": 85.3333 },
  { "id": 59, "district": "Rautahat", "latitude": 26.7716, "longitude": 85.271 },
  { "id": 60, "district": "Rolpa", "latitude": 28.2769, "longitude": 82.6634 },
  { "id": 61, "district": "Rupandehi", "latitude": 27.5075, "longitude": 83.485 },
  { "id": 62, "district": "Salyan", "latitude": 28.3496, "longitude": 82.16 },
  { "id": 63, "district": "Sankhuwasabha", "latitude": 27.646, "longitude": 87.3022 },
  { "id": 64, "district": "Saptari", "latitude": 26.6225, "longitude": 86.9456 },
  { "id": 65, "district": "Sarlahi", "latitude": 26.96, "longitude": 85.5667 },
  { "id": 66, "district": "Sindhuli", "latitude": 27.25, "longitude": 85.9667 },
  { "id": 67, "district": "Sindhupalchok", "latitude": 27.8667, "longitude": 85.7 },
  { "id": 68, "district": "Siraha", "latitude": 26.6595, "longitude": 86.2076 },
  { "id": 69, "district": "Solukhumbu", "latitude": 27.691, "longitude": 86.73 },
  { "id": 70, "district": "Sunsari", "latitude": 26.6616, "longitude": 87.1293 },
  { "id": 71, "district": "Surkhet", "latitude": 28.6, "longitude": 81.6 },
  { "id": 72, "district": "Syangja", "latitude": 28.16, "longitude": 83.78 },
  { "id": 73, "district": "Tanahun", "latitude": 28.0, "longitude": 84.25 },
  { "id": 74, "district": "Taplejung", "latitude": 27.37, "longitude": 87.664 },
  { "id": 75, "district": "Tehrathum", "latitude": 27.2, "longitude": 87.583 },
  { "id": 76, "district": "Udayapur", "latitude": 26.809, "longitude": 86.6882 },
  { "id": 77, "district": "Western Rukum", "latitude": 28.631, "longitude": 82.4636 }
]
